<?xml version="1.0" encoding="UTF-8"?>
<kml xmlns="http://www.opengis.net/kml/2.2" xmlns:gx="http://www.google.com/kml/ext/2.2" xmlns:kml="http://www.opengis.net/kml/2.2" xmlns:atom="http://www.w3.org/2005/Atom">
<Document>
	<Folder>
		<name>ForeFlight Mobile User Waypoints</name>

		<Placemark>
			<name>AAKKO</name>
			<description>עכו</description>
			<Point>
				<altitudeMode>absolute</altitudeMode>
				<coordinates>35.09638888888889,32.91861111111111,0</coordinates>
			</Point>
		</Placemark>

		<Placemark>
			<name>AFFEK</name>
			<description>אפק</description>
			<Point>
				<altitudeMode>absolute</altitudeMode>
				<coordinates>35.12777777777778,32.84027777777778,0</coordinates>
			</Point>
		</Placemark>

		<Placemark>
			<name>AFULA</name>
			<description>צומת - עפולה</description>
			<Point>
				<altitudeMode>absolute</altitudeMode>
				<coordinates>35.28194444444444,32.60361111111111,0</coordinates>
			</Point>
		</Placemark>

		<Placemark>
			<name>AHIUD</name>
			<description>אחיהוד</description>
			<Point>
				<altitudeMode>absolute</altitudeMode>
				<coordinates>35.18111111111111,32.91194444444444,0</coordinates>
			</Point>
		</Placemark>

		<Placemark>
			<name>ALLON</name>
			<description>אלון</description>
			<Point>
				<altitudeMode>absolute</altitudeMode>
				<coordinates>35.36666666666667,32.04138888888889,0</coordinates>
			</Point>
		</Placemark>

		<Placemark>
			<name>ALMOG</name>
			<description>אלמוג</description>
			<Point>
				<altitudeMode>absolute</altitudeMode>
				<coordinates>35.45638888888889,31.78972222222222,0</coordinates>
			</Point>
		</Placemark>

		<Placemark>
			<name>ALUMT</name>
			<description>אלומות</description>
			<Point>
				<altitudeMode>absolute</altitudeMode>
				<coordinates>35.54638888888889,32.71416666666667,0</coordinates>
			</Point>
		</Placemark>

		<Placemark>
			<name>AMIOZ</name>
			<description>עמיעוז</description>
			<Point>
				<altitudeMode>absolute</altitudeMode>
				<coordinates>34.40277777777778,31.25666666666667,0</coordinates>
			</Point>
		</Placemark>

		<Placemark>
			<name>AMNON</name>
			<description>אמנון</description>
			<Point>
				<altitudeMode>absolute</altitudeMode>
				<coordinates>35.56666666666667,32.90555555555555,0</coordinates>
			</Point>
		</Placemark>

		<Placemark>
			<name>APOLN</name>
			<description>אפולוניה</description>
			<Point>
				<altitudeMode>absolute</altitudeMode>
				<coordinates>34.79722222222222,32.19111111111111,0</coordinates>
			</Point>
		</Placemark>

		<Placemark>
			<name>ARAVA</name>
			<description>צומת - הערבה</description>
			<Point>
				<altitudeMode>absolute</altitudeMode>
				<coordinates>35.30916666666666,30.98944444444445,0</coordinates>
			</Point>
		</Placemark>

		<Placemark>
			<name>ARENA</name>
			<description>ארנה</description>
			<Point>
				<altitudeMode>absolute</altitudeMode>
				<coordinates>34.78555555555555,32.16472222222222,0</coordinates>
			</Point>
		</Placemark>

		<Placemark>
			<name>ARGMN</name>
			<description>ארגמן</description>
			<Point>
				<altitudeMode>absolute</altitudeMode>
				<coordinates>35.5325,32.17305555555555,0</coordinates>
			</Point>
		</Placemark>

		<Placemark>
			<name>ARRAA</name>
			<description>ערערה</description>
			<Point>
				<altitudeMode>absolute</altitudeMode>
				<coordinates>35.06694444444445,32.49944,0</coordinates>
			</Point>
		</Placemark>

		<Placemark>
			<name>ARRAD</name>
			<description>צומת - ערד</description>
			<Point>
				<altitudeMode>absolute</altitudeMode>
				<coordinates>35.20972222222223,31.25444444444445,0</coordinates>
			</Point>
		</Placemark>

		<Placemark>
			<name>ASKLN</name>
			<description>תל - אשקלון</description>
			<Point>
				<altitudeMode>absolute</altitudeMode>
				<coordinates>34.53916666666667,31.66638888888889,0</coordinates>
			</Point>
		</Placemark>

		<Placemark>
			<name>ATARA</name>
			<description>עטארה</description>
			<Point>
				<altitudeMode>absolute</altitudeMode>
				<coordinates>35.16666666666666,32.33333333333334,0</coordinates>
			</Point>
		</Placemark>

		<Placemark>
			<name>ATTIL</name>
			<description>עתיל</description>
			<Point>
				<altitudeMode>absolute</altitudeMode>
				<coordinates>35.05972222222222,32.35833333333333,0</coordinates>
			</Point>
		</Placemark>

		<Placemark>
			<name>AVITL</name>
			<description>צומת אביטל</description>
			<Point>
				<altitudeMode>absolute</altitudeMode>
				<coordinates>35.78583333333333,33.08777777777778,0</coordinates>
			</Point>
		</Placemark>

		<Placemark>
			<name>AVNON</name>
			<description>אבנון</description>
			<Point>
				<altitudeMode>absolute</altitudeMode>
				<coordinates>34.9702778,30.9713889,0</coordinates>
			</Point>
		</Placemark>

		<Placemark>
			<name>AYLON</name>
			<description>אילון</description>
			<Point>
				<altitudeMode>absolute</altitudeMode>
				<coordinates>34.94361111111111,31.87166666666667,0</coordinates>
			</Point>
		</Placemark>

		<Placemark>
			<name>AZOOZ</name>
			<description>עזוז</description>
			<Point>
				<altitudeMode>absolute</altitudeMode>
				<coordinates>34.47027777777778,30.8,0</coordinates>
			</Point>
		</Placemark>

		<Placemark>
			<name>BANIM</name>
			<description>ניר בנים</description>
			<Point>
				<altitudeMode>absolute</altitudeMode>
				<coordinates>34.76472222222223,31.67805555555556,0</coordinates>
			</Point>
		</Placemark>

		<Placemark>
			<name>BASAN</name>
			<description>להבות - הבשן</description>
			<Point>
				<altitudeMode>absolute</altitudeMode>
				<coordinates>35.63805555555555,33.14611111111111,0</coordinates>
			</Point>
		</Placemark>

		<Placemark>
			<name>BAZRA</name>
			<description>בצרה</description>
			<Point>
				<altitudeMode>absolute</altitudeMode>
				<coordinates>34.8825,32.21861111111112,0</coordinates>
			</Point>
		</Placemark>

		<Placemark>
			<name>BEREC</name>
			<description>הר - ברך</description>
			<Point>
				<altitudeMode>absolute</altitudeMode>
				<coordinates>34.91027777777778,29.79305555555556,0</coordinates>
			</Point>
		</Placemark>

		<Placemark>
			<name>BEZRA</name>
			<description>בית עזרא</description>
			<Point>
				<altitudeMode>absolute</altitudeMode>
				<coordinates>34.64916778788844,31.73524625023637,0</coordinates>
			</Point>
		</Placemark>

		<Placemark>
			<name>BHAIL</name>
			<description>ברור - חיל</description>
			<Point>
				<altitudeMode>absolute</altitudeMode>
				<coordinates>34.6325,31.55777777777778,0</coordinates>
			</Point>
		</Placemark>

		<Placemark>
			<name>BKAMA</name>
			<description>בית - קמה</description>
			<Point>
				<altitudeMode>absolute</altitudeMode>
				<coordinates>34.76555555555556,31.44166666666667,0</coordinates>
			</Point>
		</Placemark>

		<Placemark>
			<name>BMNUH</name>
			<description>באר - מנוחה</description>
			<Point>
				<altitudeMode>absolute</altitudeMode>
				<coordinates>35.13416666666667,30.30333333333334,0</coordinates>
			</Point>
		</Placemark>

		<Placemark>
			<name>BNTAL</name>
			<description>בנטל</description>
			<Point>
				<altitudeMode>absolute</altitudeMode>
				<coordinates>35.7875,33.15083333333333,0</coordinates>
			</Point>
		</Placemark>

		<Placemark>
			<name>BOKER</name>
			<description>שדה - בוקר</description>
			<Point>
				<altitudeMode>absolute</altitudeMode>
				<coordinates>34.78583333333333,30.875,0</coordinates>
			</Point>
		</Placemark>

		<Placemark>
			<name>BOREN</name>
			<description>בית אורן</description>
			<Point>
				<altitudeMode>absolute</altitudeMode>
				<coordinates>34.97083333333334,32.71444444444443,0</coordinates>
			</Point>
		</Placemark>

		<Placemark>
			<name>BOVED</name>
			<description>בית - עובד</description>
			<Point>
				<altitudeMode>absolute</altitudeMode>
				<coordinates>34.77,31.92027777777778,0</coordinates>
			</Point>
		</Placemark>

		<Placemark>
			<name>BRORA</name>
			<description>באר - אורה</description>
			<Point>
				<altitudeMode>absolute</altitudeMode>
				<coordinates>34.99722222222222,29.70805555555555,0</coordinates>
			</Point>
		</Placemark>

		<Placemark>
			<name>BSEMS</name>
			<description>בית - שמש</description>
			<Point>
				<altitudeMode>absolute</altitudeMode>
				<coordinates>34.98138888888889,31.75472222222222,0</coordinates>
			</Point>
		</Placemark>

		<Placemark>
			<name>BTSLM</name>
			<description>בת שלמה</description>
			<Point>
				<altitudeMode>absolute</altitudeMode>
				<coordinates>35.00389,32.59778,0</coordinates>
			</Point>
		</Placemark>

		<Placemark>
			<name>CLORE</name>
			<description>קלור</description>
			<Point>
				<altitudeMode>absolute</altitudeMode>
				<coordinates>34.73583333333333,32.05305555555555,0</coordinates>
			</Point>
		</Placemark>

		<Placemark>
			<name>CNHRL</name>
			<description>כרם מהר״ל</description>
			<Point>
				<altitudeMode>absolute</altitudeMode>
				<coordinates>34.97888888888889,32.64055555555556,0</coordinates>
			</Point>
		</Placemark>

		<Placemark>
			<name>DALIA</name>
			<description>דליה</description>
			<Point>
				<altitudeMode>absolute</altitudeMode>
				<coordinates>35.08333333333334,32.59694444444445,0</coordinates>
			</Point>
		</Placemark>

		<Placemark>
			<name>DAROM</name>
			<description>מחלף - דרום</description>
			<Point>
				<altitudeMode>absolute</altitudeMode>
				<coordinates>34.94333333333333,32.79611111111111,0</coordinates>
			</Point>
		</Placemark>

		<Placemark>
			<name>DEENA</name>
			<description>דינה</description>
			<Point>
				<altitudeMode>absolute</altitudeMode>
				<coordinates>34.64055555555556,32.02388888888889,0</coordinates>
			</Point>
		</Placemark>

		<Placemark>
			<name>DEROR</name>
			<description>בני - דרור</description>
			<Point>
				<altitudeMode>absolute</altitudeMode>
				<coordinates>34.89111111111111,32.25722222222223,0</coordinates>
			</Point>
		</Placemark>

		<Placemark>
			<name>DESHE</name>
			<description>כרי - דשא</description>
			<Point>
				<altitudeMode>absolute</altitudeMode>
				<coordinates>35.5325,32.87,0</coordinates>
			</Point>
		</Placemark>

		<Placemark>
			<name>DIMON</name>
			<description>דימונה</description>
			<Point>
				<altitudeMode>absolute</altitudeMode>
				<coordinates>35.00583333333334,31.06777777777778,0</coordinates>
			</Point>
		</Placemark>

		<Placemark>
			<name>DUGIT</name>
			<description>דוגית</description>
			<Point>
				<altitudeMode>absolute</altitudeMode>
				<coordinates>35.05166666666666,32.8525,0</coordinates>
			</Point>
		</Placemark>

		<Placemark>
			<name>DUMIM</name>
			<description>כפר - אדומים</description>
			<Point>
				<altitudeMode>absolute</altitudeMode>
				<coordinates>35.32472222222223,31.80388888888889,0</coordinates>
			</Point>
		</Placemark>

		<Placemark>
			<name>EILAT</name>
			<description>אילת</description>
			<Point>
				<altitudeMode>absolute</altitudeMode>
				<coordinates>34.95888888888889,29.55833333333334,0</coordinates>
			</Point>
		</Placemark>

		<Placemark>
			<name>EIRON</name>
			<description>עירון</description>
			<Point>
				<altitudeMode>absolute</altitudeMode>
				<coordinates>35.02444444444444,32.48083333333334,0</coordinates>
			</Point>
		</Placemark>

		<Placemark>
			<name>ELYAU</name>
			<description>ניר אליהו</description>
			<Point>
				<altitudeMode>absolute</altitudeMode>
				<coordinates>34.95527777777778,32.19222222222222,0</coordinates>
			</Point>
		</Placemark>

		<Placemark>
			<name>ELYKM</name>
			<description>אליקים</description>
			<Point>
				<altitudeMode>absolute</altitudeMode>
				<coordinates>35.06417,32.63611,0</coordinates>
			</Point>
		</Placemark>

		<Placemark>
			<name>EMMEK</name>
			<description>משמר - העמק</description>
			<Point>
				<altitudeMode>absolute</altitudeMode>
				<coordinates>35.14166666666667,32.615,0</coordinates>
			</Point>
		</Placemark>

		<Placemark>
			<name>ENGDI</name>
			<description>עין גדי</description>
			<Point>
				<altitudeMode>absolute</altitudeMode>
				<coordinates>35.39583333333334,31.46639,0</coordinates>
			</Point>
		</Placemark>

		<Placemark>
			<name>ENGEV</name>
			<description>עין גב</description>
			<Point>
				<altitudeMode>absolute</altitudeMode>
				<coordinates>35.64,32.78277777777777,0</coordinates>
			</Point>
		</Placemark>

		<Placemark>
			<name>ENHRD</name>
			<description>עין חרוד</description>
			<Point>
				<altitudeMode>absolute</altitudeMode>
				<coordinates>35.38222222222223,32.55444444444444,0</coordinates>
			</Point>
		</Placemark>

		<Placemark>
			<name>ESHEL</name>
			<description>אשל - הנשיא</description>
			<Point>
				<altitudeMode>absolute</altitudeMode>
				<coordinates>34.69833333333333,31.33027777777778,0</coordinates>
			</Point>
		</Placemark>

		<Placemark>
			<name>ESTOL</name>
			<description>אשתאול</description>
			<Point>
				<altitudeMode>absolute</altitudeMode>
				<coordinates>35.01138888888889,31.77944444444444,0</coordinates>
			</Point>
		</Placemark>

		<Placemark>
			<name>ETZEM</name>
			<description>עצם</description>
			<Point>
				<altitudeMode>absolute</altitudeMode>
				<coordinates>34.99306,31.09,0</coordinates>
			</Point>
		</Placemark>

		<Placemark>
			<name>EVLYM</name>
			<description>אבליים</description>
			<Point>
				<altitudeMode>absolute</altitudeMode>
				<coordinates>35.15138888888889,32.8238888888889,0</coordinates>
			</Point>
		</Placemark>

		<Placemark>
			<name>FAZEL</name>
			<description>צומת - פצאל</description>
			<Point>
				<altitudeMode>absolute</altitudeMode>
				<coordinates>35.46305555555556,32.04805555555556,0</coordinates>
			</Point>
		</Placemark>

		<Placemark>
			<name>FRDIS</name>
			<description>צומת - פורדיס</description>
			<Point>
				<altitudeMode>absolute</altitudeMode>
				<coordinates>34.94638888888888,32.59194444444444,0</coordinates>
			</Point>
		</Placemark>

		<Placemark>
			<name>GALIM</name>
			<description>בת - גלים</description>
			<Point>
				<altitudeMode>absolute</altitudeMode>
				<coordinates>34.98111111111111,32.84111111111111,0</coordinates>
			</Point>
		</Placemark>

		<Placemark>
			<name>GEFEN</name>
			<description>גפן</description>
			<Point>
				<altitudeMode>absolute</altitudeMode>
				<coordinates>34.87027777777778,31.74305555555556,0</coordinates>
			</Point>
		</Placemark>

		<Placemark>
			<name>GILAM</name>
			<description>גילעם</description>
			<Point>
				<altitudeMode>absolute</altitudeMode>
				<coordinates>35.1325,32.82138888888889,0</coordinates>
			</Point>
		</Placemark>

		<Placemark>
			<name>GILAT</name>
			<description>גילת</description>
			<Point>
				<altitudeMode>absolute</altitudeMode>
				<coordinates>34.65306,31.33721999999999,0</coordinates>
			</Point>
		</Placemark>

		<Placemark>
			<name>GNYAM</name>
			<description>גני -עם</description>
			<Point>
				<altitudeMode>absolute</altitudeMode>
				<coordinates>34.89416666666666,32.15027777777777,0</coordinates>
			</Point>
		</Placemark>

		<Placemark>
			<name>GOMME</name>
			<description>צומת גומא</description>
			<Point>
				<altitudeMode>absolute</altitudeMode>
				<coordinates>35.56916666666667,33.16916666666666,0</coordinates>
			</Point>
		</Placemark>

		<Placemark>
			<name>GORAL</name>
			<description>גורל</description>
			<Point>
				<altitudeMode>absolute</altitudeMode>
				<coordinates>34.78666944444444,31.32472222222222,0</coordinates>
			</Point>
		</Placemark>

		<Placemark>
			<name>GOVRN</name>
			<description>בית - גוברין</description>
			<Point>
				<altitudeMode>absolute</altitudeMode>
				<coordinates>34.89277777777778,31.60611111111111,0</coordinates>
			</Point>
		</Placemark>

		<Placemark>
			<name>GSHML</name>
			<description>גן שמואל</description>
			<Point>
				<altitudeMode>absolute</altitudeMode>
				<coordinates>34.95611,32.4475,0</coordinates>
			</Point>
		</Placemark>

		<Placemark>
			<name>GSIRI</name>
			<description>גשר אירי</description>
			<Point>
				<altitudeMode>absolute</altitudeMode>
				<coordinates>34.64083,31.12167,0</coordinates>
			</Point>
		</Placemark>

		<Placemark>
			<name>GVARM</name>
			<description>גברעם</description>
			<Point>
				<altitudeMode>absolute</altitudeMode>
				<coordinates>34.61027777777778,31.59333333333333,0</coordinates>
			</Point>
		</Placemark>

		<Placemark>
			<name>GVLHV</name>
			<description>גבעת להב</description>
			<Point>
				<altitudeMode>absolute</altitudeMode>
				<coordinates>34.7875,31.31083,0</coordinates>
			</Point>
		</Placemark>

		<Placemark>
			<name>GVULT</name>
			<description>גבולות</description>
			<Point>
				<altitudeMode>absolute</altitudeMode>
				<coordinates>34.46027777777778,31.22777777777777,0</coordinates>
			</Point>
		</Placemark>

		<Placemark>
			<name>HADRA</name>
			<description>צומת - נחל חדרה</description>
			<Point>
				<altitudeMode>absolute</altitudeMode>
				<coordinates>34.91222222222222,32.46472222222223,0</coordinates>
			</Point>
		</Placemark>

		<Placemark>
			<name>HAONN</name>
			<description>האון</description>
			<Point>
				<altitudeMode>absolute</altitudeMode>
				<coordinates>35.6261111,32.7277778,0</coordinates>
			</Point>
		</Placemark>

		<Placemark>
			<name>HAREL</name>
			<description>מחלף - הראל</description>
			<Point>
				<altitudeMode>absolute</altitudeMode>
				<coordinates>35.14611111111111,31.79861111111111,0</coordinates>
			</Point>
		</Placemark>

		<Placemark>
			<name>HAROV</name>
			<description>כפר - חרוב</description>
			<Point>
				<altitudeMode>absolute</altitudeMode>
				<coordinates>35.66833333333333,32.75916666666667,0</coordinates>
			</Point>
		</Placemark>

		<Placemark>
			<name>HASID</name>
			<description>כפר - חסידים</description>
			<Point>
				<altitudeMode>absolute</altitudeMode>
				<coordinates>35.07777777777778,32.74666666666667,0</coordinates>
			</Point>
		</Placemark>

		<Placemark>
			<name>HATRU</name>
			<description>צומת - חתרורים</description>
			<Point>
				<altitudeMode>absolute</altitudeMode>
				<coordinates>35.24833333333334,31.21888888888889,0</coordinates>
			</Point>
		</Placemark>

		<Placemark>
			<name>HAZVA</name>
			<description>חצבה</description>
			<Point>
				<altitudeMode>absolute</altitudeMode>
				<coordinates>35.23638888888889,30.77333333333333,0</coordinates>
			</Point>
		</Placemark>

		<Placemark>
			<name>HGSRM</name>
			<description>הגושרים</description>
			<Point>
				<altitudeMode>absolute</altitudeMode>
				<coordinates>35.63111,33.22361,0</coordinates>
			</Point>
		</Placemark>

		<Placemark>
			<name>HNINA</name>
			<description>בית - חנינא</description>
			<Point>
				<altitudeMode>absolute</altitudeMode>
				<coordinates>35.2075,31.83027777777778,0</coordinates>
			</Point>
		</Placemark>

		<Placemark>
			<name>HODYA</name>
			<description>הודיה</description>
			<Point>
				<altitudeMode>absolute</altitudeMode>
				<coordinates>34.6525,31.68277777777778,0</coordinates>
			</Point>
		</Placemark>

		<Placemark>
			<name>HOLOT</name>
			<description>חולות</description>
			<Point>
				<altitudeMode>absolute</altitudeMode>
				<coordinates>34.36027777777778,30.99416666666667,0</coordinates>
			</Point>
		</Placemark>

		<Placemark>
			<name>HOMMA</name>
			<description>הר חומה</description>
			<Point>
				<altitudeMode>absolute</altitudeMode>
				<coordinates>35.21972222222222,31.73111,0</coordinates>
			</Point>
		</Placemark>

		<Placemark>
			<name>HORON</name>
			<description>מבוא חורון</description>
			<Point>
				<altitudeMode>absolute</altitudeMode>
				<coordinates>35.02916666666667,31.85027777777778,0</coordinates>
			</Point>
		</Placemark>

		<Placemark>
			<name>HOTRM</name>
			<description>עתלית</description>
			<Point>
				<altitudeMode>absolute</altitudeMode>
				<coordinates>34.93694444444444,32.75388888888889,0</coordinates>
			</Point>
		</Placemark>

		<Placemark>
			<name>HOVAV</name>
			<description>רמת חובב</description>
			<Point>
				<altitudeMode>absolute</altitudeMode>
				<coordinates>34.805,31.13555555555556,0</coordinates>
			</Point>
		</Placemark>

		<Placemark>
			<name>HRGVS</name>
			<description>הר - גבס</description>
			<Point>
				<altitudeMode>absolute</altitudeMode>
				<coordinates>34.95,30.62277777777778,0</coordinates>
			</Point>
		</Placemark>

		<Placemark>
			<name>HTZUK</name>
			<description>הצוק</description>
			<Point>
				<altitudeMode>absolute</altitudeMode>
				<coordinates>34.77833333333333,32.14555555555555,0</coordinates>
			</Point>
		</Placemark>

		<Placemark>
			<name>HULAT</name>
			<description>חולתה</description>
			<Point>
				<altitudeMode>absolute</altitudeMode>
				<coordinates>35.62944444444445,33.04361111111111,0</coordinates>
			</Point>
		</Placemark>

		<Placemark>
			<name>IANES</name>
			<description>א״ת נס ציונה</description>
			<Point>
				<altitudeMode>absolute</altitudeMode>
				<coordinates>34.79444444444444,31.92027777777778,0</coordinates>
			</Point>
		</Placemark>

		<Placemark>
			<name>IKKEA</name>
			<description>איקאה</description>
			<Point>
				<altitudeMode>absolute</altitudeMode>
				<coordinates>34.77027777777778,31.95139,0</coordinates>
			</Point>
		</Placemark>

		<Placemark>
			<name>KANIM</name>
			<description>קנאים</description>
			<Point>
				<altitudeMode>absolute</altitudeMode>
				<coordinates>35.26944444444445,31.30917,0</coordinates>
			</Point>
		</Placemark>

		<Placemark>
			<name>KANOT</name>
			<description>צומת כנות</description>
			<Point>
				<altitudeMode>absolute</altitudeMode>
				<coordinates>34.76333333333334,31.80416666666666,0</coordinates>
			</Point>
		</Placemark>

		<Placemark>
			<name>KENED</name>
			<description>יד קנדי</description>
			<Point>
				<altitudeMode>absolute</altitudeMode>
				<coordinates>35.13472222222222,31.74972222222222,0</coordinates>
			</Point>
		</Placemark>

		<Placemark>
			<name>KNFHA</name>
			<description>כלא נפחא</description>
			<Point>
				<altitudeMode>absolute</altitudeMode>
				<coordinates>34.77527777777777,30.72722222222222,0</coordinates>
			</Point>
		</Placemark>

		<Placemark>
			<name>KNTRY</name>
			<description>קאנטרי - קלאב</description>
			<Point>
				<altitudeMode>absolute</altitudeMode>
				<coordinates>34.80138888888889,32.14083333333333,0</coordinates>
			</Point>
		</Placemark>

		<Placemark>
			<name>KOYAR</name>
			<description>כוכב - הירדן</description>
			<Point>
				<altitudeMode>absolute</altitudeMode>
				<coordinates>35.54361111111111,32.5975,0</coordinates>
			</Point>
		</Placemark>

		<Placemark>
			<name>KRMIL</name>
			<description>כרמיאל</description>
			<Point>
				<altitudeMode>absolute</altitudeMode>
				<coordinates>35.29972222222222,32.92416666666666,0</coordinates>
			</Point>
		</Placemark>

		<Placemark>
			<name>KRYON</name>
			<description>קיריון</description>
			<Point>
				<altitudeMode>absolute</altitudeMode>
				<coordinates>35.08888888888889,32.84333333333333,0</coordinates>
			</Point>
		</Placemark>

		<Placemark>
			<name>KTORA</name>
			<description>צומת - קטורה</description>
			<Point>
				<altitudeMode>absolute</altitudeMode>
				<coordinates>35.07638888888889,29.98944444444446,0</coordinates>
			</Point>
		</Placemark>

		<Placemark>
			<name>KUVSH</name>
			<description>כובשים</description>
			<Point>
				<altitudeMode>absolute</altitudeMode>
				<coordinates>34.76361111111112,31.26444444444444,0</coordinates>
			</Point>
		</Placemark>

		<Placemark>
			<name>LAHAV</name>
			<description>להב</description>
			<Point>
				<altitudeMode>absolute</altitudeMode>
				<coordinates>34.82694444444445,31.3825,0</coordinates>
			</Point>
		</Placemark>

		<Placemark>
			<name>LAPID</name>
			<description>לפיד</description>
			<Point>
				<altitudeMode>absolute</altitudeMode>
				<coordinates>35.02694444444445,31.91639,0</coordinates>
			</Point>
		</Placemark>

		<Placemark>
			<name>LIAAD</name>
			<description>ליעד</description>
			<Point>
				<altitudeMode>absolute</altitudeMode>
				<coordinates>34.515,31.95833333333333,0</coordinates>
			</Point>
		</Placemark>

		<Placemark>
			<name>LTRUN</name>
			<description>לטרון</description>
			<Point>
				<altitudeMode>absolute</altitudeMode>
				<coordinates>34.98666666666667,31.83861111111111,0</coordinates>
			</Point>
		</Placemark>

		<Placemark>
			<name>MACHZ</name>
			<description>מחלף מאחז</description>
			<Point>
				<altitudeMode>absolute</altitudeMode>
				<coordinates>34.78222222222222,31.51166666666667,0</coordinates>
			</Point>
		</Placemark>

		<Placemark>
			<name>MCZVA</name>
			<description>מחצבה</description>
			<Point>
				<altitudeMode>absolute</altitudeMode>
				<coordinates>35.0325,31.97333333333334,0</coordinates>
			</Point>
		</Placemark>

		<Placemark>
			<name>MEHOL</name>
			<description>משולש חולות</description>
			<Point>
				<altitudeMode>absolute</altitudeMode>
				<coordinates>34.76416666666667,31.96083333333333,0</coordinates>
			</Point>
		</Placemark>

		<Placemark>
			<name>MESAR</name>
			<description>מעלה - מישר</description>
			<Point>
				<altitudeMode>absolute</altitudeMode>
				<coordinates>34.94361111111111,30.50166666666667,0</coordinates>
			</Point>
		</Placemark>

		<Placemark>
			<name>MESIL</name>
			<description>מסילה</description>
			<Point>
				<altitudeMode>absolute</altitudeMode>
				<coordinates>34.90194444444445,32.11138888888889,0</coordinates>
			</Point>
		</Placemark>

		<Placemark>
			<name>MEYAL</name>
			<description>מחלף אייל</description>
			<Point>
				<altitudeMode>absolute</altitudeMode>
				<coordinates>34.96277777777778,32.2075,0</coordinates>
			</Point>
		</Placemark>

		<Placemark>
			<name>MHOLA</name>
			<description>מחולה</description>
			<Point>
				<altitudeMode>absolute</altitudeMode>
				<coordinates>35.51666666666667,32.36666666666667,0</coordinates>
			</Point>
		</Placemark>

		<Placemark>
			<name>MIGDL</name>
			<description>מגדל</description>
			<Point>
				<altitudeMode>absolute</altitudeMode>
				<coordinates>35.50944444444445,32.83639,0</coordinates>
			</Point>
		</Placemark>

		<Placemark>
			<name>MINGV</name>
			<description>משמר הנגב</description>
			<Point>
				<altitudeMode>absolute</altitudeMode>
				<coordinates>34.71278,31.36889,0</coordinates>
			</Point>
		</Placemark>

		<Placemark>
			<name>MKGAT</name>
			<description>מחלף קרית גת</description>
			<Point>
				<altitudeMode>absolute</altitudeMode>
				<coordinates>34.81222222222222,31.59889,0</coordinates>
			</Point>
		</Placemark>

		<Placemark>
			<name>MMORR</name>
			<description>מור</description>
			<Point>
				<altitudeMode>absolute</altitudeMode>
				<coordinates>35.36833333333333,31.25444444444445,0</coordinates>
			</Point>
		</Placemark>

		<Placemark>
			<name>MNHMA</name>
			<description>מנחמיה</description>
			<Point>
				<altitudeMode>absolute</altitudeMode>
				<coordinates>35.56111111111111,32.65555555555555,0</coordinates>
			</Point>
		</Placemark>

		<Placemark>
			<name>MNSZN</name>
			<description>מחלף נס ציונה</description>
			<Point>
				<altitudeMode>absolute</altitudeMode>
				<coordinates>34.81527777777777,31.93889,0</coordinates>
			</Point>
		</Placemark>

		<Placemark>
			<name>MOVIL</name>
			<description>המוביל</description>
			<Point>
				<altitudeMode>absolute</altitudeMode>
				<coordinates>35.23333333333333,32.75916666666667,0</coordinates>
			</Point>
		</Placemark>

		<Placemark>
			<name>MRHVA</name>
			<description>מרחביה</description>
			<Point>
				<altitudeMode>absolute</altitudeMode>
				<coordinates>35.31333333333333,32.59694444444445,0</coordinates>
			</Point>
		</Placemark>

		<Placemark>
			<name>MRISN</name>
			<description>מחלף - ראשון</description>
			<Point>
				<altitudeMode>absolute</altitudeMode>
				<coordinates>34.79194444444444,31.97694444444444,0</coordinates>
			</Point>
		</Placemark>

		<Placemark>
			<name>MYTAR</name>
			<description>מיתר</description>
			<Point>
				<altitudeMode>absolute</altitudeMode>
				<coordinates>34.93805555555555,31.31472222222222,0</coordinates>
			</Point>
		</Placemark>

		<Placemark>
			<name>MZDOT</name>
			<description>מצודות</description>
			<Point>
				<altitudeMode>absolute</altitudeMode>
				<coordinates>35.1075,31.35639000000001,0</coordinates>
			</Point>
		</Placemark>

		<Placemark>
			<name>NAAMA</name>
			<description>נעמה</description>
			<Point>
				<altitudeMode>absolute</altitudeMode>
				<coordinates>35.46250000000001,31.90861111111111,0</coordinates>
			</Point>
		</Placemark>

		<Placemark>
			<name>NAFCH</name>
			<description>נפח</description>
			<Point>
				<altitudeMode>absolute</altitudeMode>
				<coordinates>35.73472222222222,33.05722222222222,0</coordinates>
			</Point>
		</Placemark>

		<Placemark>
			<name>NAGID</name>
			<description>כפר - הנגיד</description>
			<Point>
				<altitudeMode>absolute</altitudeMode>
				<coordinates>34.75583333333334,31.88972222222222,0</coordinates>
			</Point>
		</Placemark>

		<Placemark>
			<name>NAHEM</name>
			<description>כפר - מנחם</description>
			<Point>
				<altitudeMode>absolute</altitudeMode>
				<coordinates>34.82222222222222,31.74527777777778,0</coordinates>
			</Point>
		</Placemark>

		<Placemark>
			<name>NAHLA</name>
			<description>נחלה</description>
			<Point>
				<altitudeMode>absolute</altitudeMode>
				<coordinates>34.80916666666666,31.65638888888889,0</coordinates>
			</Point>
		</Placemark>

		<Placemark>
			<name>NBSOR</name>
			<description>נחל בשור</description>
			<Point>
				<altitudeMode>absolute</altitudeMode>
				<coordinates>34.49306,31.27443999999999,0</coordinates>
			</Point>
		</Placemark>

		<Placemark>
			<name>NCITY</name>
			<description>צפון - העיר</description>
			<Point>
				<altitudeMode>absolute</altitudeMode>
				<coordinates>34.79138888888889,31.2875,0</coordinates>
			</Point>
		</Placemark>

		<Placemark>
			<name>NCSHN</name>
			<description>צומת נחשון</description>
			<Point>
				<altitudeMode>absolute</altitudeMode>
				<coordinates>34.91666666666666,31.81555555555556,0</coordinates>
			</Point>
		</Placemark>

		<Placemark>
			<name>NEGEV</name>
			<description>צומת - הנגב</description>
			<Point>
				<altitudeMode>absolute</altitudeMode>
				<coordinates>34.83805555555556,31.06611111111111,0</coordinates>
			</Point>
		</Placemark>

		<Placemark>
			<name>NIRYA</name>
			<description>ניר יפה</description>
			<Point>
				<altitudeMode>absolute</altitudeMode>
				<coordinates>35.24889,32.56611,0</coordinates>
			</Point>
		</Placemark>

		<Placemark>
			<name>NITZA</name>
			<description>ניצן</description>
			<Point>
				<altitudeMode>absolute</altitudeMode>
				<coordinates>34.57055555555556,31.72416666666667,0</coordinates>
			</Point>
		</Placemark>

		<Placemark>
			<name>NIZAN</name>
			<description>מזלג - ניצנה</description>
			<Point>
				<altitudeMode>absolute</altitudeMode>
				<coordinates>34.565,30.75444444444445,0</coordinates>
			</Point>
		</Placemark>

		<Placemark>
			<name>NIZNM</name>
			<description>ניצנים</description>
			<Point>
				<altitudeMode>absolute</altitudeMode>
				<coordinates>34.6277778,31.7138889,0</coordinates>
			</Point>
		</Placemark>

		<Placemark>
			<name>NMASD</name>
			<description>נמל אשדוד</description>
			<Point>
				<altitudeMode>absolute</altitudeMode>
				<coordinates>34.62527777777778,31.83333333333333,0</coordinates>
			</Point>
		</Placemark>

		<Placemark>
			<name>NNAHS</name>
			<description>נחל נחש</description>
			<Point>
				<altitudeMode>absolute</altitudeMode>
				<coordinates>34.91528,30.82139,0</coordinates>
			</Point>
		</Placemark>

		<Placemark>
			<name>NOAAM</name>
			<description>נעם</description>
			<Point>
				<altitudeMode>absolute</altitudeMode>
				<coordinates>34.77583333333333,31.57138888888889,0</coordinates>
			</Point>
		</Placemark>

		<Placemark>
			<name>NSHRM</name>
			<description>מחלף נשרים</description>
			<Point>
				<altitudeMode>absolute</altitudeMode>
				<coordinates>34.89166666666667,31.90916666666666,0</coordinates>
			</Point>
		</Placemark>

		<Placemark>
			<name>NTAIM</name>
			<description>נטעים</description>
			<Point>
				<altitudeMode>absolute</altitudeMode>
				<coordinates>34.78083333333333,31.94361111111111,0</coordinates>
			</Point>
		</Placemark>

		<Placemark>
			<name>NTVOT</name>
			<description>נתיבות</description>
			<Point>
				<altitudeMode>absolute</altitudeMode>
				<coordinates>34.59916666666667,31.42916666666666,0</coordinates>
			</Point>
		</Placemark>

		<Placemark>
			<name>OFKIM</name>
			<description>אופקים</description>
			<Point>
				<altitudeMode>absolute</altitudeMode>
				<coordinates>34.61888888888889,31.32222222222222,0</coordinates>
			</Point>
		</Placemark>

		<Placemark>
			<name>OHLIM</name>
			<description>אוהלים</description>
			<Point>
				<altitudeMode>absolute</altitudeMode>
				<coordinates>34.80472,31.19111,0</coordinates>
			</Point>
		</Placemark>

		<Placemark>
			<name>OLESH</name>
			<description>עולש</description>
			<Point>
				<altitudeMode>absolute</altitudeMode>
				<coordinates>35,32.33333333333334,0</coordinates>
			</Point>
		</Placemark>

		<Placemark>
			<name>OLGAH</name>
			<description>אולגה</description>
			<Point>
				<altitudeMode>absolute</altitudeMode>
				<coordinates>34.86583333333334,32.43138888888889,0</coordinates>
			</Point>
		</Placemark>

		<Placemark>
			<name>OMMER</name>
			<description>עומר</description>
			<Point>
				<altitudeMode>absolute</altitudeMode>
				<coordinates>34.82777777777778,31.27444444444445,0</coordinates>
			</Point>
		</Placemark>

		<Placemark>
			<name>ORAKV</name>
			<description>אור עקיבא</description>
			<Point>
				<altitudeMode>absolute</altitudeMode>
				<coordinates>34.93,32.50805555555556,0</coordinates>
			</Point>
		</Placemark>

		<Placemark>
			<name>OSNAT</name>
			<description>אסנת</description>
			<Point>
				<altitudeMode>absolute</altitudeMode>
				<coordinates>34.52333333333333,31.83277777777778,0</coordinates>
			</Point>
		</Placemark>

		<Placemark>
			<name>OVDAT</name>
			<description>חורבות - עבדת</description>
			<Point>
				<altitudeMode>absolute</altitudeMode>
				<coordinates>34.79333333333333,30.80277777777778,0</coordinates>
			</Point>
		</Placemark>

		<Placemark>
			<name>PARDS</name>
			<description>פרדס</description>
			<Point>
				<altitudeMode>absolute</altitudeMode>
				<coordinates>34.84777777777778,32.10277777777778,0</coordinates>
			</Point>
		</Placemark>

		<Placemark>
			<name>PELEG</name>
			<description>פלג</description>
			<Point>
				<altitudeMode>absolute</altitudeMode>
				<coordinates>34.83722222222222,32.33000000000001,0</coordinates>
			</Point>
		</Placemark>

		<Placemark>
			<name>PRHNA</name>
			<description>פרדס חנה</description>
			<Point>
				<altitudeMode>absolute</altitudeMode>
				<coordinates>34.97222222222222,32.47444444444444,0</coordinates>
			</Point>
		</Placemark>

		<Placemark>
			<name>REIMM</name>
			<description>רעים</description>
			<Point>
				<altitudeMode>absolute</altitudeMode>
				<coordinates>34.45166666666667,31.38694444444445,0</coordinates>
			</Point>
		</Placemark>

		<Placemark>
			<name>REUTE</name>
			<description>רעות</description>
			<Point>
				<altitudeMode>absolute</altitudeMode>
				<coordinates>35.02444444444444,31.87833333333333,0</coordinates>
			</Point>
		</Placemark>

		<Placemark>
			<name>REVAH</name>
			<description>רווחה</description>
			<Point>
				<altitudeMode>absolute</altitudeMode>
				<coordinates>34.73027777777778,31.64444444444445,0</coordinates>
			</Point>
		</Placemark>

		<Placemark>
			<name>RIDNG</name>
			<description>רידינג</description>
			<Point>
				<altitudeMode>absolute</altitudeMode>
				<coordinates>34.7625,32.11027777777779,0</coordinates>
			</Point>
		</Placemark>

		<Placemark>
			<name>ROKCH</name>
			<description>רוקח</description>
			<Point>
				<altitudeMode>absolute</altitudeMode>
				<coordinates>34.80361111111111,32.1025,0</coordinates>
			</Point>
		</Placemark>

		<Placemark>
			<name>RSNIM</name>
			<description>ראשונים</description>
			<Point>
				<altitudeMode>absolute</altitudeMode>
				<coordinates>34.80194444444446,31.94944444444446,0</coordinates>
			</Point>
		</Placemark>

		<Placemark>
			<name>RUHOT</name>
			<description>צומת - הרוחות</description>
			<Point>
				<altitudeMode>absolute</altitudeMode>
				<coordinates>34.80888888888889,30.66,0</coordinates>
			</Point>
		</Placemark>

		<Placemark>
			<name>SAADD</name>
			<description>סעד</description>
			<Point>
				<altitudeMode>absolute</altitudeMode>
				<coordinates>34.53361111111111,31.46527777777778,0</coordinates>
			</Point>
		</Placemark>

		<Placemark>
			<name>SAHAR</name>
			<description>סער</description>
			<Point>
				<altitudeMode>absolute</altitudeMode>
				<coordinates>34.75277777777778,32.29583333333333,0</coordinates>
			</Point>
		</Placemark>

		<Placemark>
			<name>SAMAR</name>
			<description>סמר</description>
			<Point>
				<altitudeMode>absolute</altitudeMode>
				<coordinates>35.02861111111111,29.83138888888889,0</coordinates>
			</Point>
		</Placemark>

		<Placemark>
			<name>SDROT</name>
			<description>שדרות</description>
			<Point>
				<altitudeMode>absolute</altitudeMode>
				<coordinates>34.58555555555556,31.50666666666668,0</coordinates>
			</Point>
		</Placemark>

		<Placemark>
			<name>SDTYM</name>
			<description>שדות ים</description>
			<Point>
				<altitudeMode>absolute</altitudeMode>
				<coordinates>34.885,32.49666666666667,0</coordinates>
			</Point>
		</Placemark>

		<Placemark>
			<name>SECHR</name>
			<description>סכר</description>
			<Point>
				<altitudeMode>absolute</altitudeMode>
				<coordinates>34.93555555555555,31.09,0</coordinates>
			</Point>
		</Placemark>

		<Placemark>
			<name>SEGEV</name>
			<description>שגב</description>
			<Point>
				<altitudeMode>absolute</altitudeMode>
				<coordinates>35.2625,32.86111111111111,0</coordinates>
			</Point>
		</Placemark>

		<Placemark>
			<name>SELZR</name>
			<description>שדה אליעזר</description>
			<Point>
				<altitudeMode>absolute</altitudeMode>
				<coordinates>35.57111111111112,33.04583333333333,0</coordinates>
			</Point>
		</Placemark>

		<Placemark>
			<name>SFAIM</name>
			<description>שפיים</description>
			<Point>
				<altitudeMode>absolute</altitudeMode>
				<coordinates>34.80722222222222,32.21055555555556,0</coordinates>
			</Point>
		</Placemark>

		<Placemark>
			<name>SHAHR</name>
			<description>כוכב - השחר</description>
			<Point>
				<altitudeMode>absolute</altitudeMode>
				<coordinates>35.33694444444445,31.9575,0</coordinates>
			</Point>
		</Placemark>

		<Placemark>
			<name>SHALM</name>
			<description>מצפה - שלם</description>
			<Point>
				<altitudeMode>absolute</altitudeMode>
				<coordinates>35.4025,31.55861111111111,0</coordinates>
			</Point>
		</Placemark>

		<Placemark>
			<name>SHARG</name>
			<description>שער - הגיא</description>
			<Point>
				<altitudeMode>absolute</altitudeMode>
				<coordinates>35.02111111111111,31.81972222222222,0</coordinates>
			</Point>
		</Placemark>

		<Placemark>
			<name>SHARO</name>
			<description>צומת - השרון</description>
			<Point>
				<altitudeMode>absolute</altitudeMode>
				<coordinates>34.90388888888889,32.32305555555556,0</coordinates>
			</Point>
		</Placemark>

		<Placemark>
			<name>SHLVM</name>
			<description>שעלבים</description>
			<Point>
				<altitudeMode>absolute</altitudeMode>
				<coordinates>34.98361111111111,31.87333333333333,0</coordinates>
			</Point>
		</Placemark>

		<Placemark>
			<name>SHRUT</name>
			<description>שחרות</description>
			<Point>
				<altitudeMode>absolute</altitudeMode>
				<coordinates>35.00333333333333,29.90777777777778,0</coordinates>
			</Point>
		</Placemark>

		<Placemark>
			<name>SIGAL</name>
			<description>סיגל</description>
			<Point>
				<altitudeMode>absolute</altitudeMode>
				<coordinates>34.29277777777778,31.195,0</coordinates>
			</Point>
		</Placemark>

		<Placemark>
			<name>SIRNI</name>
			<description>נצר - סירני</description>
			<Point>
				<altitudeMode>absolute</altitudeMode>
				<coordinates>34.83000000000001,31.92805555555556,0</coordinates>
			</Point>
		</Placemark>

		<Placemark>
			<name>SITIM</name>
			<description>שיטים</description>
			<Point>
				<altitudeMode>absolute</altitudeMode>
				<coordinates>35.01444444444444,30.17583333333333,0</coordinates>
			</Point>
		</Placemark>

		<Placemark>
			<name>SIZFN</name>
			<description>שזפון</description>
			<Point>
				<altitudeMode>absolute</altitudeMode>
				<coordinates>35.01444444444444,30.04750000000001,0</coordinates>
			</Point>
		</Placemark>

		<Placemark>
			<name>SMRAT</name>
			<description>שמרת</description>
			<Point>
				<altitudeMode>absolute</altitudeMode>
				<coordinates>35.09,32.95166666666667,0</coordinates>
			</Point>
		</Placemark>

		<Placemark>
			<name>SNNIR</name>
			<description>שניר</description>
			<Point>
				<altitudeMode>absolute</altitudeMode>
				<coordinates>35.67583333333333,33.23833333333334,0</coordinates>
			</Point>
		</Placemark>

		<Placemark>
			<name>SOKET</name>
			<description>צומת - שוקת</description>
			<Point>
				<altitudeMode>absolute</altitudeMode>
				<coordinates>34.90111111111111,31.3075,0</coordinates>
			</Point>
		</Placemark>

		<Placemark>
			<name>SOREK</name>
			<description>שורק</description>
			<Point>
				<altitudeMode>absolute</altitudeMode>
				<coordinates>34.75194444444445,31.94194444444445,0</coordinates>
			</Point>
		</Placemark>

		<Placemark>
			<name>SORES</name>
			<description>שורש</description>
			<Point>
				<altitudeMode>absolute</altitudeMode>
				<coordinates>35.07611111111112,31.79972222222223,0</coordinates>
			</Point>
		</Placemark>

		<Placemark>
			<name>SOVAL</name>
			<description>שובל</description>
			<Point>
				<altitudeMode>absolute</altitudeMode>
				<coordinates>34.74638888888889,31.41138888888889,0</coordinates>
			</Point>
		</Placemark>

		<Placemark>
			<name>SSOMR</name>
			<description>שער שומרון</description>
			<Point>
				<altitudeMode>absolute</altitudeMode>
				<coordinates>34.99611,32.10639,0</coordinates>
			</Point>
		</Placemark>

		<Placemark>
			<name>SUPER</name>
			<description>סופרלנד</description>
			<Point>
				<altitudeMode>absolute</altitudeMode>
				<coordinates>34.74166666666667,31.97638888888889,0</coordinates>
			</Point>
		</Placemark>

		<Placemark>
			<name>SZION</name>
			<description>שבי - ציון</description>
			<Point>
				<altitudeMode>absolute</altitudeMode>
				<coordinates>35.09333333333333,32.97944444444445,0</coordinates>
			</Point>
		</Placemark>

		<Placemark>
			<name>TARAD</name>
			<description>תל - ערד</description>
			<Point>
				<altitudeMode>absolute</altitudeMode>
				<coordinates>35.12555555555556,31.2775,0</coordinates>
			</Point>
		</Placemark>

		<Placemark>
			<name>TAVOR</name>
			<description>כפר - תבור</description>
			<Point>
				<altitudeMode>absolute</altitudeMode>
				<coordinates>35.42,32.69027777777777,0</coordinates>
			</Point>
		</Placemark>

		<Placemark>
			<name>TIRAT</name>
			<description>טירת - צבי</description>
			<Point>
				<altitudeMode>absolute</altitudeMode>
				<coordinates>35.52666666666666,32.42444444444444,0</coordinates>
			</Point>
		</Placemark>

		<Placemark>
			<name>TLLIM</name>
			<description>טללים</description>
			<Point>
				<altitudeMode>absolute</altitudeMode>
				<coordinates>34.76222222222222,30.99055555555555,0</coordinates>
			</Point>
		</Placemark>

		<Placemark>
			<name>TUBAS</name>
			<description>טובאס</description>
			<Point>
				<altitudeMode>absolute</altitudeMode>
				<coordinates>35.38333333333333,32.35,0</coordinates>
			</Point>
		</Placemark>

		<Placemark>
			<name>TYONA</name>
			<description>תל - יונה</description>
			<Point>
				<altitudeMode>absolute</altitudeMode>
				<coordinates>34.72722222222222,32.00472222222222,0</coordinates>
			</Point>
		</Placemark>

		<Placemark>
			<name>TZUBA</name>
			<description>צובה</description>
			<Point>
				<altitudeMode>absolute</altitudeMode>
				<coordinates>35.12055555555555,31.77944444444444,0</coordinates>
			</Point>
		</Placemark>

		<Placemark>
			<name>URRIM</name>
			<description>אורים</description>
			<Point>
				<altitudeMode>absolute</altitudeMode>
				<coordinates>34.52972222222222,31.30777777777778,0</coordinates>
			</Point>
		</Placemark>

		<Placemark>
			<name>VINGT</name>
			<description>וינגייט</description>
			<Point>
				<altitudeMode>absolute</altitudeMode>
				<coordinates>34.81694444444445,32.25555555555555,0</coordinates>
			</Point>
		</Placemark>

		<Placemark>
			<name>YAHEL</name>
			<description>יהל</description>
			<Point>
				<altitudeMode>absolute</altitudeMode>
				<coordinates>35.13333333333333,30.08222222222222,0</coordinates>
			</Point>
		</Placemark>

		<Placemark>
			<name>YAHOL</name>
			<description>ים - חולון</description>
			<Point>
				<altitudeMode>absolute</altitudeMode>
				<coordinates>34.46055555555556,32.0225,0</coordinates>
			</Point>
		</Placemark>

		<Placemark>
			<name>YAPAL</name>
			<description>ים - פלמחים</description>
			<Point>
				<altitudeMode>absolute</altitudeMode>
				<coordinates>34.45833333333334,31.915,0</coordinates>
			</Point>
		</Placemark>

		<Placemark>
			<name>YARHV</name>
			<description>ירחיב</description>
			<Point>
				<altitudeMode>absolute</altitudeMode>
				<coordinates>34.97055555555556,32.15028,0</coordinates>
			</Point>
		</Placemark>

		<Placemark>
			<name>YASDD</name>
			<description>ים - אשדוד</description>
			<Point>
				<altitudeMode>absolute</altitudeMode>
				<coordinates>34.45638888888889,31.81027777777777,0</coordinates>
			</Point>
		</Placemark>

		<Placemark>
			<name>YASFA</name>
			<description>ים - שפיים</description>
			<Point>
				<altitudeMode>absolute</altitudeMode>
				<coordinates>34.62472222222223,32.21861111111112,0</coordinates>
			</Point>
		</Placemark>

		<Placemark>
			<name>YATED</name>
			<description>יתד</description>
			<Point>
				<altitudeMode>absolute</altitudeMode>
				<coordinates>34.33444444444444,31.20472222222222,0</coordinates>
			</Point>
		</Placemark>

		<Placemark>
			<name>YAVNE</name>
			<description>יבנה מזרח</description>
			<Point>
				<altitudeMode>absolute</altitudeMode>
				<coordinates>34.75694444444444,31.87194444444444,0</coordinates>
			</Point>
		</Placemark>

		<Placemark>
			<name>YOTVT</name>
			<description>יטבתה</description>
			<Point>
				<altitudeMode>absolute</altitudeMode>
				<coordinates>35.06722222222223,29.90083333333333,0</coordinates>
			</Point>
		</Placemark>

		<Placemark>
			<name>YRUHM</name>
			<description>ירוחם</description>
			<Point>
				<altitudeMode>absolute</altitudeMode>
				<coordinates>34.91083333333333,30.98972222222222,0</coordinates>
			</Point>
		</Placemark>

		<Placemark>
			<name>ZADAM</name>
			<description>צומת אדם</description>
			<Point>
				<altitudeMode>absolute</altitudeMode>
				<coordinates>35.50972222222222,32.12583333333333,0</coordinates>
			</Point>
		</Placemark>

		<Placemark>
			<name>ZAFIT</name>
			<description>צומת - צפית</description>
			<Point>
				<altitudeMode>absolute</altitudeMode>
				<coordinates>35.19972222222222,31.0425,0</coordinates>
			</Point>
		</Placemark>

		<Placemark>
			<name>ZALMN</name>
			<description>צלמון</description>
			<Point>
				<altitudeMode>absolute</altitudeMode>
				<coordinates>35.41166666666666,32.85333333333333,0</coordinates>
			</Point>
		</Placemark>

		<Placemark>
			<name>ZAMID</name>
			<description>צומת עמיעד</description>
			<Point>
				<altitudeMode>absolute</altitudeMode>
				<coordinates>35.54222222222222,32.91333333333333,0</coordinates>
			</Point>
		</Placemark>

		<Placemark>
			<name>ZASHD</name>
			<description>צומת אשדוד/בני דרום</description>
			<Point>
				<altitudeMode>absolute</altitudeMode>
				<coordinates>34.70833333333334,31.82611111111111,0</coordinates>
			</Point>
		</Placemark>

		<Placemark>
			<name>ZBRCH</name>
			<description>צומת ברכיה</description>
			<Point>
				<altitudeMode>absolute</altitudeMode>
				<coordinates>34.60611,31.66528,0</coordinates>
			</Point>
		</Placemark>

		<Placemark>
			<name>ZBTMS</name>
			<description>צומת בית המכס</description>
			<Point>
				<altitudeMode>absolute</altitudeMode>
				<coordinates>35.65027777777777,33.01111,0</coordinates>
			</Point>
		</Placemark>

		<Placemark>
			<name>ZBTZD</name>
			<description>צומת בית צידה</description>
			<Point>
				<altitudeMode>absolute</altitudeMode>
				<coordinates>35.63305555555556,32.90389,0</coordinates>
			</Point>
		</Placemark>

		<Placemark>
			<name>ZDAFA</name>
			<description>צדפה</description>
			<Point>
				<altitudeMode>absolute</altitudeMode>
				<coordinates>34.59972222222225,31.78166666666668,0</coordinates>
			</Point>
		</Placemark>

		<Placemark>
			<name>ZEMAH</name>
			<description>צמח</description>
			<Point>
				<altitudeMode>absolute</altitudeMode>
				<coordinates>35.58583333333333,32.70444444444445,0</coordinates>
			</Point>
		</Placemark>

		<Placemark>
			<name>ZETIM</name>
			<description>עין זיתים</description>
			<Point>
				<altitudeMode>absolute</altitudeMode>
				<coordinates>35.48277777777778,32.98861,0</coordinates>
			</Point>
		</Placemark>

		<Placemark>
			<name>ZGLNI</name>
			<description>מחלף - גולני</description>
			<Point>
				<altitudeMode>absolute</altitudeMode>
				<coordinates>35.40722222222222,32.77472222222222,0</coordinates>
			</Point>
		</Placemark>

		<Placemark>
			<name>ZHNYA</name>
			<description>צומת חנניה</description>
			<Point>
				<altitudeMode>absolute</altitudeMode>
				<coordinates>35.40527777777778,32.92722222222222,0</coordinates>
			</Point>
		</Placemark>

		<Placemark>
			<name>ZHRYA</name>
			<description>זכריה</description>
			<Point>
				<altitudeMode>absolute</altitudeMode>
				<coordinates>34.94499999999999,31.69972222222222,0</coordinates>
			</Point>
		</Placemark>

		<Placemark>
			<name>ZKADR</name>
			<description>צומת קדרים</description>
			<Point>
				<altitudeMode>absolute</altitudeMode>
				<coordinates>35.47388888888889,32.90944444444445,0</coordinates>
			</Point>
		</Placemark>

		<Placemark>
			<name>ZKOCH</name>
			<description>צומת כ״ח</description>
			<Point>
				<altitudeMode>absolute</altitudeMode>
				<coordinates>35.57027777777778,33.12527777777778,0</coordinates>
			</Point>
		</Placemark>

		<Placemark>
			<name>ZLHAV</name>
			<description>צומת - להבים</description>
			<Point>
				<altitudeMode>absolute</altitudeMode>
				<coordinates>34.79333333333333,31.3725,0</coordinates>
			</Point>
		</Placemark>

		<Placemark>
			<name>ZMGEN</name>
			<description>צומת - מגן</description>
			<Point>
				<altitudeMode>absolute</altitudeMode>
				<coordinates>34.43222222222222,31.29388888888889,0</coordinates>
			</Point>
		</Placemark>

		<Placemark>
			<name>ZMGID</name>
			<description>צומת - מגידו</description>
			<Point>
				<altitudeMode>absolute</altitudeMode>
				<coordinates>35.19111111111111,32.57277777777778,0</coordinates>
			</Point>
		</Placemark>

		<Placemark>
			<name>ZMSDA</name>
			<description>צומת מסעדה</description>
			<Point>
				<altitudeMode>absolute</altitudeMode>
				<coordinates>35.75166666666667,33.23305555555556,0</coordinates>
			</Point>
		</Placemark>

		<Placemark>
			<name>ZNYMN</name>
			<description>צומת נווה ימין</description>
			<Point>
				<altitudeMode>absolute</altitudeMode>
				<coordinates>34.95861111111111,32.17222222222222,0</coordinates>
			</Point>
		</Placemark>

		<Placemark>
			<name>ZOFAR</name>
			<description>צופר</description>
			<Point>
				<altitudeMode>absolute</altitudeMode>
				<coordinates>35.18666666666666,30.55972222222223,0</coordinates>
			</Point>
		</Placemark>

		<Placemark>
			<name>ZOHAR</name>
			<description>נווה - זוהר</description>
			<Point>
				<altitudeMode>absolute</altitudeMode>
				<coordinates>35.3725,31.15083333333333,0</coordinates>
			</Point>
		</Placemark>

		<Placemark>
			<name>ZOREA</name>
			<description>הזורע</description>
			<Point>
				<altitudeMode>absolute</altitudeMode>
				<coordinates>35.11888888888889,32.64805555555556,0</coordinates>
			</Point>
		</Placemark>

		<Placemark>
			<name>ZPLGT</name>
			<description>צומת פלוגות</description>
			<Point>
				<altitudeMode>absolute</altitudeMode>
				<coordinates>34.75666666666667,31.62555555555556,0</coordinates>
			</Point>
		</Placemark>

		<Placemark>
			<name>ZSARA</name>
			<description>צומת שרה</description>
			<Point>
				<altitudeMode>absolute</altitudeMode>
				<coordinates>34.82778,31.225,0</coordinates>
			</Point>
		</Placemark>

		<Placemark>
			<name>ZUKIM</name>
			<description>עינות - צוקים</description>
			<Point>
				<altitudeMode>absolute</altitudeMode>
				<coordinates>35.44972222222222,31.71611111111111,0</coordinates>
			</Point>
		</Placemark>

		<Placemark>
			<name>ZZHOR</name>
			<description>צומת - ציחור</description>
			<Point>
				<altitudeMode>absolute</altitudeMode>
				<coordinates>35.02,30.27666666666667,0</coordinates>
			</Point>
		</Placemark>

	</Folder>
</Document>
</kml>
